{
  "locations":
  [
    {
      "name": "Amsterdam",
      "lat": 52.3547498,
      "long": 4.8339215
    },
    {
      "name": "Berlin",
      "lat": 49.98247246,
      "long": 8.273219156
    },
    {
      "name": "Paris",
      "lat": 45.89997479,
      "long": 6.116670287
    },
    {
      "name": "Ankara",
      "lat": 41.74299917,
      "long": 27.22599962
    },
    {
      "name": "Copenhagen",
      "lat": 55.6713442,
      "long": 12.523785
    },
    {
      "lat": 40.4380638,
      "long": -3.7495758
    }
  ]
}
